{"type":"FeatureCollection","features":[{"type":"Feature","id":30,"geometry":{"type":"Point","coordinates":[-71.137312466309552,42.452256361198749]},"properties":{"objectid":30,"station":"WINCHESTER CENTER","c_railstat":"Y","amtrak":" ","map_sta":"Y","line_brnch":"LOWELL LINE","state":"MA"}},{"type":"Feature","id":31,"geometry":{"type":"Point","coordinates":[-71.133354709819827,42.421816378565936]},"properties":{"objectid":31,"station":"WEST MEDFORD","c_railstat":"Y","amtrak":" ","map_sta":"Y","line_brnch":"LOWELL LINE","state":"MA"}},{"type":"Feature","id":32,"geometry":{"type":"Point","coordinates":[-71.2811502318783,42.593655743644852]},"properties":{"objectid":32,"station":"NORTH BILLERICA","c_railstat":"Y","amtrak":" ","map_sta":"Y","line_brnch":"LOWELL LINE","state":"MA"}},{"type":"Feature","id":33,"geometry":{"type":"Point","coordinates":[-71.175598961804255,42.548106371685641]},"properties":{"objectid":33,"station":"WILMINGTON","c_railstat":"Y","amtrak":" ","map_sta":"Y","line_brnch":"LOWELL LINE","state":"MA"}},{"type":"Feature","id":37,"geometry":{"type":"Point","coordinates":[-71.396943552783497,42.08267454183332]},"properties":{"objectid":37,"station":"FRANKLIN/DEAN COLLEGE","c_railstat":"Y","amtrak":" ","map_sta":"Y","line_brnch":"FRANKLIN LINE","state":"MA"}},{"type":"Feature","id":38,"geometry":{"type":"Point","coordinates":[-71.325382291182891,42.120547084636179]},"properties":{"objectid":38,"station":"NORFOLK","c_railstat":"Y","amtrak":" ","map_sta":"Y","line_brnch":"FRANKLIN LINE","state":"MA"}},{"type":"Feature","id":39,"geometry":{"type":"Point","coordinates":[-71.236008750822904,42.159007072302167]},"properties":{"objectid":39,"station":"PLIMPTONVILLE","c_railstat":"Y","amtrak":" ","map_sta":"Y","line_brnch":"FRANKLIN LINE","state":"MA"}},{"type":"Feature","id":40,"geometry":{"type":"Point","coordinates":[-71.220692896267735,42.171068793812353]},"properties":{"objectid":40,"station":"WINDSOR GARDENS","c_railstat":"Y","amtrak":" ","map_sta":"Y","line_brnch":"FRANKLIN LINE","state":"MA"}},{"type":"Feature","id":42,"geometry":{"type":"Point","coordinates":[-71.086296344819942,42.280057838144458]},"properties":{"objectid":42,"station":"MORTON STREET","c_railstat":"Y","amtrak":" ","map_sta":"Y","line_brnch":"FAIRMOUNT LINE","state":"MA"}},{"type":"Feature","id":43,"geometry":{"type":"Point","coordinates":[-71.1188040365695,42.254256951743251]},"properties":{"objectid":43,"station":"FAIRMOUNT","c_railstat":"Y","amtrak":" ","map_sta":"Y","line_brnch":"FAIRMOUNT LINE","state":"MA"}},{"type":"Feature","id":44,"geometry":{"type":"Point","coordinates":[-71.065642745892504,42.32750846259637]},"properties":{"objectid":44,"station":"NEWMARKET","c_railstat":"Y","amtrak":" ","map_sta":"Y","line_brnch":"FAIRMOUNT LINE","state":"MA"}},{"type":"Feature","id":45,"geometry":{"type":"Point","coordinates":[-71.07719658428455,42.304794769007955]},"properties":{"objectid":45,"station":"FOUR CORNERS/GENEVA AVE","c_railstat":"Y","amtrak":" ","map_sta":"Y","line_brnch":"FAIRMOUNT LINE","state":"MA"}},{"type":"Feature","id":46,"geometry":{"type":"Point","coordinates":[-71.16029710870815,42.232668430409312]},"properties":{"objectid":46,"station":"ENDICOTT","c_railstat":"Y","amtrak":" ","map_sta":"Y","line_brnch":"FRANKLIN LINE","state":"MA"}},{"type":"Feature","id":47,"geometry":{"type":"Point","coordinates":[-71.413284893240842,41.829243369960572]},"properties":{"objectid":47,"station":"PROVIDENCE","c_railstat":"Y","amtrak":"Y","map_sta":"Y","line_brnch":"PROVIDENCE/STOUGHTON LINE","state":"RI"}},{"type":"Feature","id":59,"geometry":{"type":"Point","coordinates":[-70.878783561980015,42.799591732511097]},"properties":{"objectid":59,"station":"NEWBURYPORT","c_railstat":"Y","amtrak":" ","map_sta":"Y","line_brnch":"NEWBURYPORT LINE","state":"MA"}},{"type":"Feature","id":68,"geometry":{"type":"Point","coordinates":[-70.874095688911623,42.611098016905238]},"properties":{"objectid":68,"station":"HAMILTON/WENHAM","c_railstat":"Y","amtrak":" ","map_sta":"Y","line_brnch":"NEWBURYPORT LINE","state":"MA"}},{"type":"Feature","id":76,"geometry":{"type":"Point","coordinates":[-71.236056261226835,42.29319287749825]},"properties":{"objectid":76,"station":"NEEDHAM HEIGHTS","c_railstat":"Y","amtrak":" ","map_sta":"Y","line_brnch":"NEEDHAM LINE","state":"MA"}},{"type":"Feature","id":84,"geometry":{"type":"Point","coordinates":[-70.964577941214714,41.984094823530398]},"properties":{"objectid":84,"station":"BRIDGEWATER","c_railstat":"Y","amtrak":" ","map_sta":"Y","line_brnch":"OLD COLONY MIDDLEBOROUGH/LAKEVILLE LINE","state":"MA"}},{"type":"Feature","id":94,"geometry":{"type":"Point","coordinates":[-71.054960849662663,42.351471232375395]},"properties":{"objectid":94,"station":"SOUTH STATION","c_railstat":"Y","amtrak":"Y","map_sta":"Y","line_brnch":"MULTIPLE","state":"MA"}},{"type":"Feature","id":115,"geometry":{"type":"Point","coordinates":[-71.062271190322079,42.366295154905764]},"properties":{"objectid":115,"station":"NORTH STATION","c_railstat":"Y","amtrak":"Y","map_sta":"Y","line_brnch":"MULTIPLE (WESTERN ROUTE)","state":"MA"}},{"type":"Feature","id":119,"geometry":{"type":"Point","coordinates":[-70.92171938839617,42.219408036182557]},"properties":{"objectid":119,"station":"EAST WEYMOUTH","c_railstat":"Y","amtrak":" ","map_sta":"Y","line_brnch":"GREENBUSH LINE","state":"MA"}},{"type":"Feature","id":134,"geometry":{"type":"Point","coordinates":[-71.033442196319854,42.395472124093523]},"properties":{"objectid":134,"station":"CHELSEA","c_railstat":"Y","amtrak":" ","map_sta":"Y","line_brnch":"NEWBURYPORT/ROCKPORT LINE","state":"MA"}},{"type":"Feature","id":137,"geometry":{"type":"Point","coordinates":[-71.258131717826984,42.145327158349467]},"properties":{"objectid":137,"station":"WALPOLE","c_railstat":"Y","amtrak":" ","map_sta":"Y","line_brnch":"FRANKLIN LINE","state":"MA"}},{"type":"Feature","id":141,"geometry":{"type":"Point","coordinates":[-70.858550295978731,42.725027802257586]},"properties":{"objectid":141,"station":"ROWLEY","c_railstat":"Y","amtrak":" ","map_sta":"Y","line_brnch":"NEWBURYPORT LINE","state":"MA"}},{"type":"Feature","id":142,"geometry":{"type":"Point","coordinates":[-70.895982446319394,42.523970473168255]},"properties":{"objectid":142,"station":"SALEM","c_railstat":"Y","amtrak":" ","map_sta":"Y","line_brnch":"NEWBURYPORT/ROCKPORT LINE","state":"MA"}},{"type":"Feature","id":143,"geometry":{"type":"Point","coordinates":[-70.921684180892299,42.474250999021912]},"properties":{"objectid":143,"station":"SWAMPSCOTT","c_railstat":"Y","amtrak":" ","map_sta":"Y","line_brnch":"NEWBURYPORT/ROCKPORT LINE","state":"MA"}},{"type":"Feature","id":144,"geometry":{"type":"Point","coordinates":[-70.969767743185415,42.449806928682996]},"properties":{"objectid":144,"station":"RIVER WORKS","c_railstat":"Y","amtrak":" ","map_sta":"Y","line_brnch":"NEWBURYPORT/ROCKPORT LINE","state":"MA"}},{"type":"Feature","id":145,"geometry":{"type":"Point","coordinates":[-71.476118126567897,42.261023351453701]},"properties":{"objectid":145,"station":"ASHLAND","c_railstat":"Y","amtrak":" ","map_sta":"Y","line_brnch":"WORCESTER LINE","state":"MA"}},{"type":"Feature","id":146,"geometry":{"type":"Point","coordinates":[-71.523845491473708,42.267150438098383]},"properties":{"objectid":146,"station":"SOUTHBOROUGH","c_railstat":"Y","amtrak":" ","map_sta":"Y","line_brnch":"WORCESTER LINE","state":"MA"}},{"type":"Feature","id":147,"geometry":{"type":"Point","coordinates":[-71.648601604366036,42.269276559796701]},"properties":{"objectid":147,"station":"WESTBOROUGH","c_railstat":"Y","amtrak":" ","map_sta":"Y","line_brnch":"WORCESTER LINE","state":"MA"}},{"type":"Feature","id":148,"geometry":{"type":"Point","coordinates":[-71.684615066410331,42.247135461499873]},"properties":{"objectid":148,"station":"GRAFTON","c_railstat":"Y","amtrak":" ","map_sta":"Y","line_brnch":"WORCESTER LINE","state":"MA"}},{"type":"Feature","id":149,"geometry":{"type":"Point","coordinates":[-70.840602210496058,42.676879299061902]},"properties":{"objectid":149,"station":"IPSWICH","c_railstat":"Y","amtrak":" ","map_sta":"Y","line_brnch":"NEWBURYPORT LINE","state":"MA"}},{"type":"Feature","id":150,"geometry":{"type":"Point","coordinates":[-70.626260496553073,42.656211071649025]},"properties":{"objectid":150,"station":"ROCKPORT","c_railstat":"Y","amtrak":" ","map_sta":"Y","line_brnch":"ROCKPORT LINE","state":"MA"}},{"type":"Feature","id":151,"geometry":{"type":"Point","coordinates":[-70.706121573397809,42.611370730937082]},"properties":{"objectid":151,"station":"WEST GLOUCESTER","c_railstat":"Y","amtrak":" ","map_sta":"Y","line_brnch":"ROCKPORT LINE","state":"MA"}},{"type":"Feature","id":152,"geometry":{"type":"Point","coordinates":[-70.868526539179484,42.562374190269921]},"properties":{"objectid":152,"station":"MONTSERRAT","c_railstat":"Y","amtrak":" ","map_sta":"Y","line_brnch":"ROCKPORT LINE","state":"MA"}},{"type":"Feature","id":153,"geometry":{"type":"Point","coordinates":[-70.825024444414524,42.559517579596907]},"properties":{"objectid":153,"station":"PRIDES CROSSING","c_railstat":"Y","amtrak":" ","map_sta":"Y","line_brnch":"ROCKPORT LINE","state":"MA"}},{"type":"Feature","id":154,"geometry":{"type":"Point","coordinates":[-70.812263950395177,42.561483001162422]},"properties":{"objectid":154,"station":"BEVERLY FARMS","c_railstat":"Y","amtrak":" ","map_sta":"Y","line_brnch":"ROCKPORT LINE","state":"MA"}},{"type":"Feature","id":155,"geometry":{"type":"Point","coordinates":[-70.770386469667955,42.573561312337354]},"properties":{"objectid":155,"station":"MANCHESTER","c_railstat":"Y","amtrak":" ","map_sta":"Y","line_brnch":"ROCKPORT LINE","state":"MA"}},{"type":"Feature","id":156,"geometry":{"type":"Point","coordinates":[-71.260465379699326,42.092806684015777]},"properties":{"objectid":156,"station":"FOXBORO (SPECIAL EVENT)","c_railstat":"S","amtrak":" ","map_sta":"Y","line_brnch":"FOXBORO (SPECIAL EVENTS ONLY)","state":"MA"}},{"type":"Feature","id":157,"geometry":{"type":"Point","coordinates":[-71.12546891265265,42.255201425219937]},"properties":{"objectid":157,"station":"HYDE PARK","c_railstat":"Y","amtrak":" ","map_sta":"Y","line_brnch":"PROVIDENCE/STOUGHTON LINE","state":"MA"}},{"type":"Feature","id":158,"geometry":{"type":"Point","coordinates":[-71.114623273886991,42.299490554345759]},"properties":{"objectid":158,"station":"FOREST HILLS","c_railstat":"Y","amtrak":" ","map_sta":"Y","line_brnch":"NEEDHAM LINE","state":"MA"}},{"type":"Feature","id":159,"geometry":{"type":"Point","coordinates":[-71.075118032244461,42.347467574316511]},"properties":{"objectid":159,"station":"BACK BAY","c_railstat":"Y","amtrak":"Y","map_sta":"Y","line_brnch":"PROVIDENCE/STOUGHTON LINE","state":"MA"}},{"type":"Feature","id":160,"geometry":{"type":"Point","coordinates":[-70.820811868616758,42.01297832237821]},"properties":{"objectid":160,"station":"HALIFAX","c_railstat":"Y","amtrak":" ","map_sta":"Y","line_brnch":"OLD COLONY KINGSTON/PLYMOUTH BRANCH","state":"MA"}},{"type":"Feature","id":161,"geometry":{"type":"Point","coordinates":[-70.952721915934546,42.154159722795193]},"properties":{"objectid":161,"station":"SOUTH WEYMOUTH","c_railstat":"Y","amtrak":" ","map_sta":"Y","line_brnch":"OLD COLONY KINGSTON/PLYMOUTH BRANCH","state":"MA"}},{"type":"Feature","id":162,"geometry":{"type":"Point","coordinates":[-70.923625762417998,42.082984830656535]},"properties":{"objectid":162,"station":"WHITMAN","c_railstat":"Y","amtrak":" ","map_sta":"Y","line_brnch":"OLD COLONY KINGSTON/PLYMOUTH BRANCH","state":"MA"}},{"type":"Feature","id":163,"geometry":{"type":"Point","coordinates":[-70.723837327711436,41.976370041845009]},"properties":{"objectid":163,"station":"KINGSTON","c_railstat":"Y","amtrak":" ","map_sta":"Y","line_brnch":"OLD COLONY KINGSTON/PLYMOUTH BRANCH","state":"MA"}},{"type":"Feature","id":164,"geometry":{"type":"Point","coordinates":[-71.103372398691917,42.123783999780414]},"properties":{"objectid":164,"station":"STOUGHTON","c_railstat":"Y","amtrak":" ","map_sta":"Y","line_brnch":"PROVIDENCE/STOUGHTON LINE","state":"MA"}},{"type":"Feature","id":165,"geometry":{"type":"Point","coordinates":[-71.419915118544537,42.276208090733995]},"properties":{"objectid":165,"station":"FRAMINGHAM","c_railstat":"Y","amtrak":"Y","map_sta":"Y","line_brnch":"WORCESTER LINE","state":"MA"}},{"type":"Feature","id":166,"geometry":{"type":"Point","coordinates":[-71.272064095376606,42.323650300752831]},"properties":{"objectid":166,"station":"WELLESLEY FARMS","c_railstat":"Y","amtrak":" ","map_sta":"Y","line_brnch":"WORCESTER LINE","state":"MA"}},{"type":"Feature","id":167,"geometry":{"type":"Point","coordinates":[-71.250290720968025,42.34589955018216]},"properties":{"objectid":167,"station":"AUBURNDALE","c_railstat":"Y","amtrak":" ","map_sta":"Y","line_brnch":"WORCESTER LINE","state":"MA"}},{"type":"Feature","id":168,"geometry":{"type":"Point","coordinates":[-71.20702490339572,42.351411859061102]},"properties":{"objectid":168,"station":"NEWTONVILLE","c_railstat":"Y","amtrak":" ","map_sta":"Y","line_brnch":"WORCESTER LINE","state":"MA"}},{"type":"Feature","id":169,"geometry":{"type":"Point","coordinates":[-71.231335897895889,42.347825635862556]},"properties":{"objectid":169,"station":"WEST NEWTON","c_railstat":"Y","amtrak":" ","map_sta":"Y","line_brnch":"WORCESTER LINE","state":"MA"}},{"type":"Feature","id":170,"geometry":{"type":"Point","coordinates":[-71.276864661659801,42.310990391380123]},"properties":{"objectid":170,"station":"WELLESLEY HILLS","c_railstat":"Y","amtrak":" ","map_sta":"Y","line_brnch":"WORCESTER LINE","state":"MA"}},{"type":"Feature","id":171,"geometry":{"type":"Point","coordinates":[-71.100479551934868,42.347655331607683]},"properties":{"objectid":171,"station":"YAWKEY","c_railstat":"Y","amtrak":" ","map_sta":"Y","line_brnch":"WORCESTER LINE","state":"MA"}},{"type":"Feature","id":172,"geometry":{"type":"Point","coordinates":[-71.075104141482853,42.347678353386137]},"properties":{"objectid":172,"station":"BACK BAY","c_railstat":"Y","amtrak":"Y","map_sta":"Y","line_brnch":"WORCESTER LINE","state":"MA"}},{"type":"Feature","id":173,"geometry":{"type":"Point","coordinates":[-71.391454428555278,42.283214089703996]},"properties":{"objectid":173,"station":"WEST NATICK","c_railstat":"Y","amtrak":" ","map_sta":"Y","line_brnch":"WORCESTER LINE","state":"MA"}},{"type":"Feature","id":174,"geometry":{"type":"Point","coordinates":[-71.294947927286799,42.297193909317727]},"properties":{"objectid":174,"station":"WELLESLEY SQUARE","c_railstat":"Y","amtrak":" ","map_sta":"Y","line_brnch":"WORCESTER LINE","state":"MA"}},{"type":"Feature","id":175,"geometry":{"type":"Point","coordinates":[-71.0684969894414,42.46880180176116]},"properties":{"objectid":175,"station":"MELROSE HIGHLANDS","c_railstat":"Y","amtrak":" ","map_sta":"Y","line_brnch":"HAVERHILL LINE","state":"MA"}},{"type":"Feature","id":176,"geometry":{"type":"Point","coordinates":[-71.069902511543944,42.459164067502172]},"properties":{"objectid":176,"station":"MELROSE/CEDAR PARK","c_railstat":"Y","amtrak":" ","map_sta":"Y","line_brnch":"HAVERHILL LINE","state":"MA"}},{"type":"Feature","id":177,"geometry":{"type":"Point","coordinates":[-71.075769508807113,42.502390019113683]},"properties":{"objectid":177,"station":"WAKEFIELD","c_railstat":"Y","amtrak":" ","map_sta":"Y","line_brnch":"HAVERHILL LINE","state":"MA"}},{"type":"Feature","id":178,"geometry":{"type":"Point","coordinates":[-71.110671429799822,42.523261782571126]},"properties":{"objectid":178,"station":"READING","c_railstat":"Y","amtrak":" ","map_sta":"Y","line_brnch":"HAVERHILL LINE","state":"MA"}},{"type":"Feature","id":180,"geometry":{"type":"Point","coordinates":[-70.785453309692073,42.218779219670751]},"properties":{"objectid":180,"station":"NORTH SCITUATE","c_railstat":"Y","amtrak":" ","map_sta":"Y","line_brnch":"GREENBUSH LINE","state":"MA"}},{"type":"Feature","id":181,"geometry":{"type":"Point","coordinates":[-70.867937974710742,42.244952137620814]},"properties":{"objectid":181,"station":"NANTASKET JUNCTION","c_railstat":"Y","amtrak":" ","map_sta":"Y","line_brnch":"GREENBUSH LINE","state":"MA"}},{"type":"Feature","id":182,"geometry":{"type":"Point","coordinates":[-70.746567307549924,42.177807447180101]},"properties":{"objectid":182,"station":"GREENBUSH","c_railstat":"Y","amtrak":" ","map_sta":"Y","line_brnch":"GREENBUSH LINE","state":"MA"}},{"type":"Feature","id":186,"geometry":{"type":"Point","coordinates":[-70.616232928020821,41.744834538147707]},"properties":{"objectid":186,"station":"BUZZARDS BAY (S)","c_railstat":"S","amtrak":" ","map_sta":"Y","line_brnch":"CAPE COD MAIN LINE","state":"MA"}},{"type":"Feature","id":204,"geometry":{"type":"Point","coordinates":[-71.08655139418606,42.768735207660399]},"properties":{"objectid":204,"station":"BRADFORD","c_railstat":"Y","amtrak":" ","map_sta":"Y","line_brnch":"HAVERHILL LINE","state":"MA"}},{"type":"Feature","id":209,"geometry":{"type":"Point","coordinates":[-71.151692261070849,42.701782311154183]},"properties":{"objectid":209,"station":"LAWRENCE","c_railstat":"Y","amtrak":" ","map_sta":"Y","line_brnch":"HAVERHILL LINE","state":"MA"}},{"type":"Feature","id":225,"geometry":{"type":"Point","coordinates":[-71.173463764801454,42.227464596432817]},"properties":{"objectid":225,"station":"DEDHAM CORP. CENTER","c_railstat":"Y","amtrak":" ","map_sta":"Y","line_brnch":"FRANKLIN LINE","state":"MA"}},{"type":"Feature","id":229,"geometry":{"type":"Point","coordinates":[-71.144541359133228,42.658156755430248]},"properties":{"objectid":229,"station":"ANDOVER","c_railstat":"Y","amtrak":" ","map_sta":"Y","line_brnch":"HAVERHILL LINE","state":"MA"}},{"type":"Feature","id":233,"geometry":{"type":"Point","coordinates":[-71.159865241425805,42.626994012574308]},"properties":{"objectid":233,"station":"BALLARDVALE","c_railstat":"Y","amtrak":" ","map_sta":"Y","line_brnch":"HAVERHILL LINE","state":"MA"}},{"type":"Feature","id":239,"geometry":{"type":"Point","coordinates":[-71.439992049320622,42.089855082903661]},"properties":{"objectid":239,"station":"FORGE PARK/495","c_railstat":"Y","amtrak":" ","map_sta":"Y","line_brnch":"FRANKLIN LINE","state":"MA"}},{"type":"Feature","id":241,"geometry":{"type":"Point","coordinates":[-70.665817331614377,42.616714925879151]},"properties":{"objectid":241,"station":"GLOUCESTER","c_railstat":"Y","amtrak":" ","map_sta":"Y","line_brnch":"ROCKPORT LINE","state":"MA"}},{"type":"Feature","id":242,"geometry":{"type":"Point","coordinates":[-71.086470050768028,42.774569016799816]},"properties":{"objectid":242,"station":"HAVERHILL","c_railstat":"Y","amtrak":"Y","map_sta":"Y","line_brnch":"HAVERHILL LINE","state":"MA"}},{"type":"Feature","id":246,"geometry":{"type":"Point","coordinates":[-70.947329818137661,42.461984033224091]},"properties":{"objectid":246,"station":"LYNN","c_railstat":"Y","amtrak":" ","map_sta":"Y","line_brnch":"NEWBURYPORT/ROCKPORT LINE","state":"MA"}},{"type":"Feature","id":250,"geometry":{"type":"Point","coordinates":[-71.069313388115091,42.452035671301545]},"properties":{"objectid":250,"station":"WYOMING HILL","c_railstat":"Y","amtrak":" ","map_sta":"Y","line_brnch":"HAVERHILL LINE","state":"MA"}},{"type":"Feature","id":251,"geometry":{"type":"Point","coordinates":[-71.347976385211823,42.285644525522386]},"properties":{"objectid":251,"station":"NATICK","c_railstat":"Y","amtrak":" ","map_sta":"Y","line_brnch":"WORCESTER LINE","state":"MA"}},{"type":"Feature","id":254,"geometry":{"type":"Point","coordinates":[-70.966965263840535,42.221874558706375]},"properties":{"objectid":254,"station":"WEYMOUTH LANDING/EAST BRAINTREE","c_railstat":"Y","amtrak":" ","map_sta":"Y","line_brnch":"GREENBUSH LINE","state":"MA"}},{"type":"Feature","id":255,"geometry":{"type":"Point","coordinates":[-71.159157338869989,42.568965356148311]},"properties":{"objectid":255,"station":"NORTH WILMINGTON","c_railstat":"Y","amtrak":" ","map_sta":"Y","line_brnch":"HAVERHILL LINE","state":"MA"}},{"type":"Feature","id":256,"geometry":{"type":"Point","coordinates":[-71.140101553148398,42.444912174807683]},"properties":{"objectid":256,"station":"WEDGEMERE","c_railstat":"Y","amtrak":" ","map_sta":"Y","line_brnch":"LOWELL LINE","state":"MA"}},{"type":"Feature","id":257,"geometry":{"type":"Point","coordinates":[-71.143694211695717,42.515764244319733]},"properties":{"objectid":257,"station":"ANDERSON/WOBURN","c_railstat":"Y","amtrak":"Y","map_sta":"Y","line_brnch":"LOWELL LINE","state":"MA"}},{"type":"Feature","id":259,"geometry":{"type":"Point","coordinates":[-70.688886464817827,41.980578394997515]},"properties":{"objectid":259,"station":"PLYMOUTH","c_railstat":"Y","amtrak":" ","map_sta":"Y","line_brnch":"OLD COLONY KINGSTON/PLYMOUTH BRANCH","state":"MA"}},{"type":"Feature","id":260,"geometry":{"type":"Point","coordinates":[-71.315034822892514,42.636467873578425]},"properties":{"objectid":260,"station":"LOWELL","c_railstat":"Y","amtrak":" ","map_sta":"Y","line_brnch":"LOWELL LINE","state":"MA"}},{"type":"Feature","id":261,"geometry":{"type":"Point","coordinates":[-71.145569500732861,42.156762174405941]},"properties":{"objectid":261,"station":"CANTON CENTER","c_railstat":"Y","amtrak":" ","map_sta":"Y","line_brnch":"PROVIDENCE/STOUGHTON LINE","state":"MA"}},{"type":"Feature","id":265,"geometry":{"type":"Point","coordinates":[-71.354944770515175,41.897804329967478]},"properties":{"objectid":265,"station":"SOUTH ATTLEBORO","c_railstat":"Y","amtrak":" ","map_sta":"Y","line_brnch":"PROVIDENCE/STOUGHTON LINE","state":"MA"}},{"type":"Feature","id":266,"geometry":{"type":"Point","coordinates":[-71.21992684783072,42.032792429534844]},"properties":{"objectid":266,"station":"MANSFIELD","c_railstat":"Y","amtrak":" ","map_sta":"Y","line_brnch":"PROVIDENCE/STOUGHTON LINE","state":"MA"}},{"type":"Feature","id":267,"geometry":{"type":"Point","coordinates":[-71.153900417931936,42.163657617723992]},"properties":{"objectid":267,"station":"CANTON JUNCTION","c_railstat":"Y","amtrak":" ","map_sta":"Y","line_brnch":"PROVIDENCE/STOUGHTON LINE","state":"MA"}},{"type":"Feature","id":270,"geometry":{"type":"Point","coordinates":[-70.88388069747873,42.582934664537042]},"properties":{"objectid":270,"station":"NORTH BEVERLY","c_railstat":"Y","amtrak":" ","map_sta":"Y","line_brnch":"NEWBURYPORT LINE","state":"MA"}},{"type":"Feature","id":271,"geometry":{"type":"Point","coordinates":[-71.13397999805521,42.238173355579953]},"properties":{"objectid":271,"station":"READVILLE","c_railstat":"Y","amtrak":" ","map_sta":"Y","line_brnch":"FRANKLIN LINE","state":"MA"}},{"type":"Feature","id":286,"geometry":{"type":"Point","coordinates":[-71.236524633338547,42.374118014026493]},"properties":{"objectid":286,"station":"WALTHAM","c_railstat":"Y","amtrak":" ","map_sta":"Y","line_brnch":"FITCHBURG LINE","state":"MA"}},{"type":"Feature","id":287,"geometry":{"type":"Point","coordinates":[-71.358768526491346,42.45708173563478]},"properties":{"objectid":287,"station":"CONCORD","c_railstat":"Y","amtrak":" ","map_sta":"Y","line_brnch":"FITCHBURG LINE","state":"MA"}},{"type":"Feature","id":288,"geometry":{"type":"Point","coordinates":[-71.325858154630183,42.414047938478582]},"properties":{"objectid":288,"station":"LINCOLN","c_railstat":"Y","amtrak":" ","map_sta":"Y","line_brnch":"FITCHBURG LINE","state":"MA"}},{"type":"Feature","id":289,"geometry":{"type":"Point","coordinates":[-71.289161874037106,42.385855859043474]},"properties":{"objectid":289,"station":"HASTINGS","c_railstat":"Y","amtrak":" ","map_sta":"Y","line_brnch":"FITCHBURG LINE","state":"MA"}},{"type":"Feature","id":290,"geometry":{"type":"Point","coordinates":[-71.190596918152821,42.387644022936328]},"properties":{"objectid":290,"station":"WAVERLEY","c_railstat":"Y","amtrak":" ","map_sta":"Y","line_brnch":"FITCHBURG LINE","state":"MA"}},{"type":"Feature","id":291,"geometry":{"type":"Point","coordinates":[-71.119407866837449,42.388406249650217]},"properties":{"objectid":291,"station":"PORTER SQUARE","c_railstat":"Y","amtrak":" ","map_sta":"Y","line_brnch":"FITCHBURG LINE","state":"MA"}},{"type":"Feature","id":292,"geometry":{"type":"Point","coordinates":[-71.502488474883236,42.519303563352338]},"properties":{"objectid":292,"station":"LITTLETON/ROUTE 495","c_railstat":"Y","amtrak":" ","map_sta":"Y","line_brnch":"FITCHBURG LINE","state":"MA"}},{"type":"Feature","id":293,"geometry":{"type":"Point","coordinates":[-71.457905150782281,42.4603638506129]},"properties":{"objectid":293,"station":"SOUTH ACTON","c_railstat":"Y","amtrak":" ","map_sta":"Y","line_brnch":"FITCHBURG LINE","state":"MA"}},{"type":"Feature","id":294,"geometry":{"type":"Point","coordinates":[-71.392724731255868,42.457082352793734]},"properties":{"objectid":294,"station":"WEST CONCORD","c_railstat":"Y","amtrak":" ","map_sta":"Y","line_brnch":"FITCHBURG LINE","state":"MA"}},{"type":"Feature","id":295,"geometry":{"type":"Point","coordinates":[-71.302109925934474,42.39569184936596]},"properties":{"objectid":295,"station":"SILVER HILL","c_railstat":"Y","amtrak":" ","map_sta":"Y","line_brnch":"FITCHBURG LINE","state":"MA"}},{"type":"Feature","id":296,"geometry":{"type":"Point","coordinates":[-71.283216021976955,42.379786510643008]},"properties":{"objectid":296,"station":"KENDAL GREEN","c_railstat":"Y","amtrak":" ","map_sta":"Y","line_brnch":"FITCHBURG LINE","state":"MA"}},{"type":"Feature","id":297,"geometry":{"type":"Point","coordinates":[-71.260107350944551,42.361933111775677]},"properties":{"objectid":297,"station":"BRANDEIS/ROBERTS","c_railstat":"Y","amtrak":" ","map_sta":"Y","line_brnch":"FITCHBURG LINE","state":"MA"}},{"type":"Feature","id":298,"geometry":{"type":"Point","coordinates":[-71.175823631791545,42.396026015532954]},"properties":{"objectid":298,"station":"BELMONT","c_railstat":"Y","amtrak":" ","map_sta":"Y","line_brnch":"FITCHBURG LINE","state":"MA"}},{"type":"Feature","id":299,"geometry":{"type":"Point","coordinates":[-71.739857755301415,42.540074237700026]},"properties":{"objectid":299,"station":"NORTH LEOMINSTER","c_railstat":"Y","amtrak":" ","map_sta":"Y","line_brnch":"FITCHBURG LINE","state":"MA"}},{"type":"Feature","id":301,"geometry":{"type":"Point","coordinates":[-71.588650001191226,42.559074081030829]},"properties":{"objectid":301,"station":"AYER","c_railstat":"Y","amtrak":" ","map_sta":"Y","line_brnch":"FITCHBURG LINE","state":"MA"}},{"type":"Feature","id":308,"geometry":{"type":"Point","coordinates":[-71.648301724676585,42.545130656536017]},"properties":{"objectid":308,"station":"SHIRLEY","c_railstat":"Y","amtrak":" ","map_sta":"Y","line_brnch":"FITCHBURG LINE","state":"MA"}},{"type":"Feature","id":311,"geometry":{"type":"Point","coordinates":[-71.187610447705723,42.216704198755238]},"properties":{"objectid":311,"station":"ISLINGTON","c_railstat":"Y","amtrak":" ","map_sta":"Y","line_brnch":"FRANKLIN LINE","state":"MA"}},{"type":"Feature","id":312,"geometry":{"type":"Point","coordinates":[-71.06734108967305,42.482963696727033]},"properties":{"objectid":312,"station":"GREENWOOD","c_railstat":"Y","amtrak":" ","map_sta":"Y","line_brnch":"HAVERHILL LINE","state":"MA"}},{"type":"Feature","id":314,"geometry":{"type":"Point","coordinates":[-70.88242046128849,42.043955361260494]},"properties":{"objectid":314,"station":"HANSON","c_railstat":"Y","amtrak":" ","map_sta":"Y","line_brnch":"OLD COLONY KINGSTON/PLYMOUTH BRANCH","state":"MA"}},{"type":"Feature","id":315,"geometry":{"type":"Point","coordinates":[-70.934225512889867,42.106729632237709]},"properties":{"objectid":315,"station":"ABINGTON","c_railstat":"Y","amtrak":" ","map_sta":"Y","line_brnch":"OLD COLONY KINGSTON/PLYMOUTH BRANCH","state":"MA"}},{"type":"Feature","id":317,"geometry":{"type":"Point","coordinates":[-71.184284834234148,42.124813177844146]},"properties":{"objectid":317,"station":"SHARON","c_railstat":"Y","amtrak":" ","map_sta":"Y","line_brnch":"PROVIDENCE/STOUGHTON LINE","state":"MA"}},{"type":"Feature","id":319,"geometry":{"type":"Point","coordinates":[-71.199704160240486,42.188791356451524]},"properties":{"objectid":319,"station":"NORWOOD CENTRAL","c_railstat":"Y","amtrak":" ","map_sta":"Y","line_brnch":"FRANKLIN LINE","state":"MA"}},{"type":"Feature","id":321,"geometry":{"type":"Point","coordinates":[-71.196926130572692,42.196318551770972]},"properties":{"objectid":321,"station":"NORWOOD DEPOT","c_railstat":"Y","amtrak":" ","map_sta":"Y","line_brnch":"FRANKLIN LINE","state":"MA"}},{"type":"Feature","id":322,"geometry":{"type":"Point","coordinates":[-71.136958445510459,42.503078353891127]},"properties":{"objectid":322,"station":"MISHAWUM","c_railstat":"Y","amtrak":" ","map_sta":"Y","line_brnch":"LOWELL LINE","state":"MA"}},{"type":"Feature","id":324,"geometry":{"type":"Point","coordinates":[-71.074260574281467,42.426594911596432]},"properties":{"objectid":324,"station":"MALDEN CENTER","c_railstat":"Y","amtrak":" ","map_sta":"Y","line_brnch":"HAVERHILL LINE","state":"MA"}},{"type":"Feature","id":326,"geometry":{"type":"Point","coordinates":[-71.79463753476216,42.261016940380912]},"properties":{"objectid":326,"station":"WORCESTER","c_railstat":"Y","amtrak":"Y","map_sta":"Y","line_brnch":"WORCESTER LINE","state":"MA"}},{"type":"Feature","id":327,"geometry":{"type":"Point","coordinates":[-71.023419258790938,42.109018287111056]},"properties":{"objectid":327,"station":"MONTELLO","c_railstat":"Y","amtrak":" ","map_sta":"Y","line_brnch":"OLD COLONY MIDDLEBOROUGH/LAKEVILLE LINE","state":"MA"}},{"type":"Feature","id":328,"geometry":{"type":"Point","coordinates":[-71.01105555605325,42.061079445085163]},"properties":{"objectid":328,"station":"CAMPELLO","c_railstat":"Y","amtrak":" ","map_sta":"Y","line_brnch":"OLD COLONY MIDDLEBOROUGH/LAKEVILLE LINE","state":"MA"}},{"type":"Feature","id":330,"geometry":{"type":"Point","coordinates":[-70.9173699851507,41.877484704710866]},"properties":{"objectid":330,"station":"MIDDLEBOROUGH/LAKEVILLE","c_railstat":"Y","amtrak":" ","map_sta":"Y","line_brnch":"OLD COLONY MIDDLEBOROUGH/LAKEVILLE LINE","state":"MA"}},{"type":"Feature","id":331,"geometry":{"type":"Point","coordinates":[-71.016535494287965,42.084437612837355]},"properties":{"objectid":331,"station":"BROCKTON","c_railstat":"Y","amtrak":" ","map_sta":"Y","line_brnch":"OLD COLONY MIDDLEBOROUGH/LAKEVILLE LINE","state":"MA"}},{"type":"Feature","id":332,"geometry":{"type":"Point","coordinates":[-71.027708043496546,42.155433478708716]},"properties":{"objectid":332,"station":"HOLBROOK/RANDOLPH","c_railstat":"Y","amtrak":" ","map_sta":"Y","line_brnch":"OLD COLONY MIDDLEBOROUGH/LAKEVILLE LINE","state":"MA"}},{"type":"Feature","id":333,"geometry":{"type":"Point","coordinates":[-71.052161631933416,42.320734554330301]},"properties":{"objectid":333,"station":"JFK/UMASS","c_railstat":"Y","amtrak":" ","map_sta":"Y","line_brnch":"MIDDLEBOROUGH MAIN","state":"MA"}},{"type":"Feature","id":334,"geometry":{"type":"Point","coordinates":[-71.236572007282703,42.273013895591596]},"properties":{"objectid":334,"station":"NEEDHAM JUNCTION","c_railstat":"Y","amtrak":" ","map_sta":"Y","line_brnch":"NEEDHAM LINE","state":"MA"}},{"type":"Feature","id":335,"geometry":{"type":"Point","coordinates":[-71.237855465880884,42.280243978425112]},"properties":{"objectid":335,"station":"NEEDHAM CENTER","c_railstat":"Y","amtrak":" ","map_sta":"Y","line_brnch":"NEEDHAM LINE","state":"MA"}},{"type":"Feature","id":336,"geometry":{"type":"Point","coordinates":[-71.21460239080794,42.27578215472743]},"properties":{"objectid":336,"station":"HERSEY","c_railstat":"Y","amtrak":" ","map_sta":"Y","line_brnch":"NEEDHAM LINE","state":"MA"}},{"type":"Feature","id":337,"geometry":{"type":"Point","coordinates":[-71.159814924131084,42.281530483079294]},"properties":{"objectid":337,"station":"WEST ROXBURY","c_railstat":"Y","amtrak":" ","map_sta":"Y","line_brnch":"NEEDHAM LINE","state":"MA"}},{"type":"Feature","id":338,"geometry":{"type":"Point","coordinates":[-71.154227555976519,42.284810587414349]},"properties":{"objectid":338,"station":"HIGHLAND","c_railstat":"Y","amtrak":" ","map_sta":"Y","line_brnch":"NEEDHAM LINE","state":"MA"}},{"type":"Feature","id":339,"geometry":{"type":"Point","coordinates":[-71.145474204869174,42.286592946649193]},"properties":{"objectid":339,"station":"BELLEVUE","c_railstat":"Y","amtrak":" ","map_sta":"Y","line_brnch":"NEEDHAM LINE","state":"MA"}},{"type":"Feature","id":340,"geometry":{"type":"Point","coordinates":[-71.131660532236751,42.287066594559846]},"properties":{"objectid":340,"station":"ROSLINDALE VILLAGE","c_railstat":"Y","amtrak":" ","map_sta":"Y","line_brnch":"NEEDHAM LINE","state":"MA"}},{"type":"Feature","id":343,"geometry":{"type":"Point","coordinates":[-71.147177426238883,42.210305067138577]},"properties":{"objectid":343,"station":"ROUTE 128","c_railstat":"Y","amtrak":"Y","map_sta":"Y","line_brnch":"PROVIDENCE/STOUGHTON LINE","state":"MA"}},{"type":"Feature","id":347,"geometry":{"type":"Point","coordinates":[-71.00524823572357,42.25134285138396]},"properties":{"objectid":347,"station":"QUINCY CENTER","c_railstat":"Y","amtrak":" ","map_sta":"Y","line_brnch":"MIDDLEBOROUGH MAIN","state":"MA"}},{"type":"Feature","id":350,"geometry":{"type":"Point","coordinates":[-71.089216537622661,42.33655099242857]},"properties":{"objectid":350,"station":"RUGGLES","c_railstat":"Y","amtrak":" ","map_sta":"Y","line_brnch":"PROVIDENCE/STOUGHTON LINE","state":"MA"}},{"type":"Feature","id":353,"geometry":{"type":"Point","coordinates":[-70.280162955280659,41.654907098277079]},"properties":{"objectid":353,"station":"HYANNIS (S)","c_railstat":"S","amtrak":" ","map_sta":"Y","line_brnch":"CAPE COD MAIN LINE","state":"MA"}},{"type":"Feature","id":364,"geometry":{"type":"Point","coordinates":[-70.885305275539196,42.547916650752029]},"properties":{"objectid":364,"station":"BEVERLY","c_railstat":"Y","amtrak":" ","map_sta":"Y","line_brnch":"NEWBURYPORT/ROCKPORT LINE","state":"MA"}},{"type":"Feature","id":365,"geometry":{"type":"Point","coordinates":[-71.001366503004022,42.208303253400977]},"properties":{"objectid":365,"station":"BRAINTREE","c_railstat":"Y","amtrak":" ","map_sta":"Y","line_brnch":"MIDDLEBOROUGH MAIN","state":"MA"}},{"type":"Feature","id":366,"geometry":{"type":"Point","coordinates":[-71.284340474164154,41.941740308420599]},"properties":{"objectid":366,"station":"ATTLEBORO","c_railstat":"Y","amtrak":" ","map_sta":"Y","line_brnch":"PROVIDENCE/STOUGHTON LINE","state":"MA"}},{"type":"Feature","id":368,"geometry":{"type":"Point","coordinates":[-70.837127926095064,42.244184731644573]},"properties":{"objectid":368,"station":"COHASSET","c_railstat":"Y","amtrak":" ","map_sta":"Y","line_brnch":"GREENBUSH LINE","state":"MA"}},{"type":"Feature","id":369,"geometry":{"type":"Point","coordinates":[-70.902642644474497,42.236135906511365]},"properties":{"objectid":369,"station":"WEST HINGHAM","c_railstat":"Y","amtrak":" ","map_sta":"Y","line_brnch":"GREENBUSH LINE","state":"MA"}},{"type":"Feature","id":371,"geometry":{"type":"Point","coordinates":[-71.491586544227644,41.580340660849302]},"properties":{"objectid":371,"station":"WICKFORD JCT, RI","c_railstat":"Y","amtrak":" ","map_sta":"Y","line_brnch":"PROVIDENCE/STOUGHTON LINE","state":"RI"}},{"type":"Feature","id":372,"geometry":{"type":"Point","coordinates":[-71.442459287666225,41.726405104510938]},"properties":{"objectid":372,"station":"TF GREEN AIRPORT","c_railstat":"Y","amtrak":" ","map_sta":"Y","line_brnch":"PROVIDENCE/STOUGHTON LINE","state":"RI"}},{"type":"Feature","id":376,"geometry":{"type":"Point","coordinates":[-70.713297376992486,41.757521602701246]},"properties":{"objectid":376,"station":"WAREHAM (S)","c_railstat":"S","amtrak":" ","map_sta":"Y","line_brnch":"CAPE COD MAIN LINE","state":"MA"}},{"type":"Feature","id":381,"geometry":{"type":"Point","coordinates":[-71.793612794304138,42.581082200203745]},"properties":{"objectid":381,"station":"FITCHBURG","c_railstat":"Y","amtrak":" ","map_sta":"Y","line_brnch":"FITCHBURG LINE","state":"MA"}},{"type":"Feature","id":384,"geometry":{"type":"Point","coordinates":[-71.078251719390252,42.292471918884964]},"properties":{"objectid":384,"station":"TALBOT AVENUE","c_railstat":"Y","amtrak":" ","map_sta":"Y","line_brnch":"FAIRMOUNT LINE","state":"MA"}},{"type":"Feature","id":385,"geometry":{"type":"Point","coordinates":[-71.06864140254936,42.31909636651875]},"properties":{"objectid":385,"station":"UPHAMS CORNER","c_railstat":"Y","amtrak":" ","map_sta":"Y","line_brnch":"FAIRMOUNT LINE","state":"MA"}},{"type":"Feature","id":386,"geometry":{"type":"Point","coordinates":[-71.133238683816245,42.237892268898179]},"properties":{"objectid":386,"station":"READVILLE","c_railstat":"Y","amtrak":" ","map_sta":"Y","line_brnch":"FAIRMOUNT LINE","state":"MA"}}]}